,City,Lat,Lng,High Temp,Humidity,Cloudiness,Wind Speed,Country,Date Time
0,chinchani,19.87,72.7,81.54,77,44,0.22,in,10-12-2020
1,celestun,20.87,-90.4,86.97,64,40,4.38,mx,10-12-2020
2,pacific grove,36.62,-121.92,78.8,31,1,5.82,us,10-12-2020
3,kruisfontein,-34.0,24.73,61.0,74,53,2.3,za,10-12-2020
4,vostok,46.49,135.88,32.41,95,72,3.24,ru,10-12-2020
5,ushuaia,-54.8,-68.3,44.6,70,75,16.11,ar,10-12-2020
6,hilo,19.73,-155.09,73.99,64,90,6.93,us,10-12-2020
7,saskylakh,71.92,114.08,16.52,96,96,8.23,ru,10-12-2020
8,butaritari,3.07,172.79,81.79,74,35,17.22,ki,10-12-2020
9,kidal,18.44,1.41,96.69,12,0,8.21,ml,10-12-2020
11,sambava,-14.27,50.17,75.92,87,28,7.67,mg,10-12-2020
12,rikitea,-23.12,-134.97,74.35,75,32,16.28,pf,10-12-2020
13,khorixas,-20.37,14.97,62.87,40,0,10.85,na,10-12-2020
14,omsukchan,62.53,155.8,30.74,84,39,6.98,ru,10-12-2020
16,port alfred,-33.59,26.89,62.17,75,30,16.8,za,10-12-2020
17,dikson,73.51,80.55,33.15,86,100,18.19,ru,10-12-2020
18,hualmay,-11.1,-77.61,68.36,68,41,10.09,pe,10-12-2020
19,vestmanna,62.16,-7.17,44.6,93,96,10.29,fo,10-12-2020
20,port-gentil,-0.72,8.78,78.8,83,40,14.99,ga,10-12-2020
21,natchitoches,31.77,-93.13,84.2,66,90,10.22,us,10-12-2020
22,krasnyy chikoy,50.36,108.75,17.42,91,14,3.67,ru,10-12-2020
23,hermanus,-34.42,19.23,59.0,87,80,1.99,za,10-12-2020
24,bengkulu,-3.8,102.27,75.67,90,77,4.68,id,10-12-2020
25,rikitea,-23.12,-134.97,74.35,75,32,16.28,pf,10-12-2020
26,pacific grove,36.62,-121.92,78.8,31,1,5.82,us,10-12-2020
27,ushuaia,-54.8,-68.3,44.6,70,75,16.11,ar,10-12-2020
28,ambilobe,-13.2,49.05,77.52,74,30,7.49,mg,10-12-2020
29,kapaa,22.08,-159.32,77.0,94,75,6.93,us,10-12-2020
30,mahebourg,-20.41,57.7,71.6,88,40,9.17,mu,10-12-2020
32,atuona,-9.8,-139.03,78.28,75,42,16.26,pf,10-12-2020
33,auki,-8.77,160.7,78.71,86,75,4.25,sb,10-12-2020
34,port hedland,-20.32,118.57,73.4,64,0,5.82,au,10-12-2020
35,punta arenas,-53.15,-70.92,44.6,87,90,9.17,cl,10-12-2020
36,georgetown,5.41,100.34,77.0,88,40,3.36,sh,10-12-2020
37,port lincoln,-34.73,135.87,57.31,93,14,7.4,au,10-12-2020
38,bredasdorp,-34.53,20.04,59.0,62,90,11.41,za,10-12-2020
39,nikolskoye,59.7,30.79,48.99,93,100,4.47,ru,10-12-2020
40,hirara,24.8,125.28,79.41,84,37,19.01,jp,10-12-2020
41,ushuaia,-54.8,-68.3,44.6,70,75,16.11,ar,10-12-2020
42,tura,25.52,90.22,74.32,92,1,2.44,ru,10-12-2020
43,stornoway,58.21,-6.39,48.2,93,40,10.29,gb,10-12-2020
44,kuloy,61.03,42.49,44.44,95,96,4.76,ru,10-12-2020
45,rikitea,-23.12,-134.97,74.35,75,32,16.28,pf,10-12-2020
47,nikolskoye,59.7,30.79,48.99,93,100,4.47,ru,10-12-2020
48,kodiak,57.79,-152.41,28.4,92,1,5.82,us,10-12-2020
49,ahipara,-35.17,173.17,60.33,95,100,8.57,nz,10-12-2020
50,grindavik,63.84,-22.43,42.8,100,75,4.7,is,10-12-2020
51,coquimbo,-29.95,-71.34,55.4,82,90,8.05,cl,10-12-2020
53,tuktoyaktuk,69.45,-133.04,23.0,85,75,20.8,ca,10-12-2020
54,katsuura,35.13,140.3,71.01,94,75,3.36,jp,10-12-2020
55,cockburn town,21.46,-71.14,83.75,75,41,12.44,bs,10-12-2020
56,east london,-33.02,27.91,62.6,77,36,11.41,za,10-12-2020
57,puerto ayora,-0.74,-90.35,77.0,69,20,24.16,ec,10-12-2020
58,lebu,-37.62,-73.65,54.27,72,0,19.15,cl,10-12-2020
59,nanpara,27.87,81.5,76.05,60,0,4.29,in,10-12-2020
60,panaba,21.28,-88.27,87.73,70,64,5.59,mx,10-12-2020
61,kodiak,57.79,-152.41,28.4,92,1,5.82,us,10-12-2020
62,kodiak,57.79,-152.41,28.4,92,1,5.82,us,10-12-2020
63,hualmay,-11.1,-77.61,68.36,68,41,10.09,pe,10-12-2020
64,cape town,-33.93,18.42,64.0,72,82,4.7,za,10-12-2020
65,busselton,-33.65,115.33,59.0,60,52,9.84,au,10-12-2020
66,mildura,-34.2,142.15,62.6,51,23,3.36,au,10-12-2020
68,hilo,19.73,-155.09,73.99,64,90,6.93,us,10-12-2020
69,tasiilaq,65.61,-37.64,35.6,93,100,5.82,gl,10-12-2020
70,port alfred,-33.59,26.89,62.17,75,30,16.8,za,10-12-2020
71,tame,6.46,-71.73,84.47,71,21,4.27,co,10-12-2020
72,dwarka,22.24,68.97,84.2,70,5,11.05,in,10-12-2020
73,bandarbeyla,9.49,50.81,79.2,81,0,8.88,so,10-12-2020
74,cherskiy,68.75,161.3,18.23,90,4,7.94,ru,10-12-2020
75,atuona,-9.8,-139.03,78.28,75,42,16.26,pf,10-12-2020
76,khatanga,71.97,102.5,26.38,97,99,13.11,ru,10-12-2020
77,hilo,19.73,-155.09,73.99,64,90,6.93,us,10-12-2020
78,barrow,71.29,-156.79,24.8,79,90,7.72,us,10-12-2020
79,paamiut,61.99,-49.67,41.22,86,100,32.03,gl,10-12-2020
80,kindu,-2.95,25.95,70.9,96,100,1.68,cd,10-12-2020
81,alofi,-19.06,-169.92,73.8,80,93,26.75,nu,10-12-2020
82,port alfred,-33.59,26.89,62.17,75,30,16.8,za,10-12-2020
83,creel,27.75,-107.63,68.99,28,98,18.03,mx,10-12-2020
85,port alfred,-33.59,26.89,62.17,75,30,16.8,za,10-12-2020
86,mount isa,-20.73,139.5,77.0,27,3,10.29,au,10-12-2020
87,nantucket,41.28,-70.1,55.99,76,90,12.75,us,10-12-2020
89,chanika,-5.42,38.02,71.37,85,15,6.67,tz,10-12-2020
90,mangrol,21.12,70.12,83.53,64,13,10.29,in,10-12-2020
91,moerai,-22.43,-151.33,76.08,85,13,15.82,pf,10-12-2020
92,bluff,-46.6,168.33,44.55,80,40,7.07,nz,10-12-2020
93,saskylakh,71.92,114.08,16.52,96,96,8.23,ru,10-12-2020
94,kodiak,57.79,-152.41,28.4,92,1,5.82,us,10-12-2020
95,yellowknife,62.46,-114.35,34.0,80,90,19.46,ca,10-12-2020
96,tuktoyaktuk,69.45,-133.04,23.0,85,75,20.8,ca,10-12-2020
97,new norfolk,-42.78,147.06,48.0,68,80,4.0,au,10-12-2020
98,rikitea,-23.12,-134.97,74.35,75,32,16.28,pf,10-12-2020
99,atuona,-9.8,-139.03,78.28,75,42,16.26,pf,10-12-2020
100,jamestown,42.1,-79.24,62.01,82,90,16.11,sh,10-12-2020
101,mataura,-46.19,168.86,37.33,95,29,1.01,pf,10-12-2020
102,talnakh,69.49,88.4,26.6,100,40,22.37,ru,10-12-2020
103,bluff,-46.6,168.33,44.55,80,40,7.07,nz,10-12-2020
104,tiksi,71.69,128.87,9.16,93,31,6.58,ru,10-12-2020
105,busselton,-33.65,115.33,59.0,60,52,9.84,au,10-12-2020
106,thompson,55.74,-97.86,41.0,75,75,14.99,ca,10-12-2020
107,olafsvik,64.89,-23.71,45.05,81,93,7.85,is,10-12-2020
108,albany,42.6,-73.97,57.0,51,88,1.99,au,10-12-2020
109,shirokiy,49.76,129.52,30.72,91,73,9.15,ru,10-12-2020
110,mataura,-46.19,168.86,37.33,95,29,1.01,pf,10-12-2020
111,saldanha,-33.01,17.94,62.6,67,69,9.17,za,10-12-2020
112,saint-joseph,-21.37,55.62,72.0,78,16,5.82,re,10-12-2020
113,saskylakh,71.92,114.08,16.52,96,96,8.23,ru,10-12-2020
114,edd,13.93,41.69,86.74,57,0,7.78,er,10-12-2020
115,tuktoyaktuk,69.45,-133.04,23.0,85,75,20.8,ca,10-12-2020
116,bilma,18.69,12.92,89.2,15,0,4.79,ne,10-12-2020
117,bengkulu,-3.8,102.27,75.67,90,77,4.68,id,10-12-2020
118,rikitea,-23.12,-134.97,74.35,75,32,16.28,pf,10-12-2020
119,mataura,-46.19,168.86,37.33,95,29,1.01,pf,10-12-2020
120,komsomolskiy,40.43,71.72,51.8,66,0,4.7,ru,10-12-2020
121,chuy,-33.7,-53.46,60.89,75,97,8.84,uy,10-12-2020
122,rikitea,-23.12,-134.97,74.35,75,32,16.28,pf,10-12-2020
124,hamilton,39.18,-84.53,73.4,73,90,10.29,bm,10-12-2020
125,bredasdorp,-34.53,20.04,59.0,62,90,11.41,za,10-12-2020
127,walvis bay,-22.96,14.51,55.99,87,0,8.05,na,10-12-2020
128,qaanaaq,77.48,-69.36,35.11,86,100,5.39,gl,10-12-2020
129,jalu,29.03,21.55,81.7,27,6,8.77,ly,10-12-2020
130,norman wells,65.28,-126.83,24.8,85,75,11.41,ca,10-12-2020
131,albany,42.6,-73.97,57.0,51,88,1.99,au,10-12-2020
132,carutapera,-1.2,-46.02,86.56,57,7,9.98,br,10-12-2020
133,qaanaaq,77.48,-69.36,35.11,86,100,5.39,gl,10-12-2020
134,rikitea,-23.12,-134.97,74.35,75,32,16.28,pf,10-12-2020
135,khatanga,71.97,102.5,26.38,97,99,13.11,ru,10-12-2020
137,pangnirtung,66.15,-65.71,35.6,74,75,13.87,ca,10-12-2020
138,castro,-24.79,-50.01,79.32,40,0,6.42,cl,10-12-2020
139,vaini,-21.2,-175.2,71.6,73,75,10.29,to,10-12-2020
140,jamestown,42.1,-79.24,62.01,82,90,16.11,sh,10-12-2020
141,carnarvon,-24.87,113.63,68.0,88,90,17.22,au,10-12-2020
142,new norfolk,-42.78,147.06,48.0,68,80,4.0,au,10-12-2020
143,vaini,-21.2,-175.2,71.6,73,75,10.29,to,10-12-2020
144,atuona,-9.8,-139.03,78.28,75,42,16.26,pf,10-12-2020
145,neiafu,-18.65,-173.98,75.2,78,40,11.41,to,10-12-2020
146,manzhouli,49.6,117.43,26.42,85,100,13.71,cn,10-12-2020
147,san juan,-31.54,-68.54,81.48,15,12,3.15,ar,10-12-2020
148,atuona,-9.8,-139.03,78.28,75,42,16.26,pf,10-12-2020
149,vardo,70.37,31.11,42.8,87,75,12.75,no,10-12-2020
150,vaini,-21.2,-175.2,71.6,73,75,10.29,to,10-12-2020
151,hilo,19.73,-155.09,73.99,64,90,6.93,us,10-12-2020
152,vaini,-21.2,-175.2,71.6,73,75,10.29,to,10-12-2020
153,mount isa,-20.73,139.5,77.0,27,3,10.29,au,10-12-2020
154,joao pinheiro,-17.74,-46.17,89.22,40,69,5.84,br,10-12-2020
155,vaini,-21.2,-175.2,71.6,73,75,10.29,to,10-12-2020
157,cabo san lucas,22.89,-109.91,82.99,83,90,5.5,mx,10-12-2020
159,upernavik,72.79,-56.15,31.87,96,22,9.93,gl,10-12-2020
160,albany,42.6,-73.97,57.0,51,88,1.99,au,10-12-2020
161,bluff,-46.6,168.33,44.55,80,40,7.07,nz,10-12-2020
162,rio gallegos,-51.62,-69.22,66.2,42,75,31.09,ar,10-12-2020
163,vila velha,-20.33,-40.29,73.99,88,90,8.05,br,10-12-2020
164,rikitea,-23.12,-134.97,74.35,75,32,16.28,pf,10-12-2020
165,nanortalik,60.14,-45.24,42.57,86,100,26.6,gl,10-12-2020
166,sur,22.57,59.53,81.01,65,1,8.75,om,10-12-2020
167,ancud,-41.87,-73.82,57.2,58,40,3.36,cl,10-12-2020
168,margate,51.38,1.39,54.0,93,100,1.01,za,10-12-2020
169,srednekolymsk,67.45,153.68,23.2,89,21,4.09,ru,10-12-2020
171,punta arenas,-53.15,-70.92,44.6,87,90,9.17,cl,10-12-2020
172,torbay,47.67,-52.73,50.0,57,20,21.92,ca,10-12-2020
174,bobcaygeon,44.55,-78.54,57.2,76,90,9.17,ca,10-12-2020
175,xuddur,4.12,43.89,80.98,63,97,6.62,so,10-12-2020
176,kavieng,-2.57,150.8,82.69,69,77,4.32,pg,10-12-2020
177,waipawa,-41.41,175.52,55.4,87,74,3.36,nz,10-12-2020
178,wajima,37.4,136.9,66.51,77,61,14.36,jp,10-12-2020
179,agogo,6.8,-1.08,74.17,91,18,2.46,gh,10-12-2020
180,tiksi,71.69,128.87,9.16,93,31,6.58,ru,10-12-2020
181,busselton,-33.65,115.33,59.0,60,52,9.84,au,10-12-2020
182,bambous virieux,-20.34,57.76,73.99,88,40,9.17,mu,10-12-2020
183,vaini,-21.2,-175.2,71.6,73,75,10.29,to,10-12-2020
184,rikitea,-23.12,-134.97,74.35,75,32,16.28,pf,10-12-2020
185,kaeo,-35.1,173.78,62.01,96,95,8.01,nz,10-12-2020
186,lixourion,38.2,20.43,75.2,78,75,24.16,gr,10-12-2020
187,rikitea,-23.12,-134.97,74.35,75,32,16.28,pf,10-12-2020
189,saskylakh,71.92,114.08,16.52,96,96,8.23,ru,10-12-2020
190,hobart,-42.88,147.33,50.0,66,75,14.99,au,10-12-2020
191,naryan-mar,67.67,53.09,43.54,87,100,7.94,ru,10-12-2020
192,mount gambier,-37.83,140.77,53.6,87,90,10.29,au,10-12-2020
193,yellowknife,62.46,-114.35,34.0,80,90,19.46,ca,10-12-2020
194,berlevag,70.86,29.09,39.2,100,75,19.46,no,10-12-2020
195,lorengau,-2.02,147.27,81.5,78,97,5.84,pg,10-12-2020
197,ushuaia,-54.8,-68.3,44.6,70,75,16.11,ar,10-12-2020
198,antofagasta,-23.65,-70.4,69.01,67,20,10.29,cl,10-12-2020
199,ahipara,-35.17,173.17,60.33,95,100,8.57,nz,10-12-2020
200,tuatapere,-46.13,167.68,40.98,87,49,1.72,nz,10-12-2020
201,rikitea,-23.12,-134.97,74.35,75,32,16.28,pf,10-12-2020
202,danville,36.59,-79.39,69.8,83,90,8.05,us,10-12-2020
203,puerto carreno,6.19,-67.49,91.29,52,17,6.87,co,10-12-2020
204,sao filipe,14.9,-24.5,78.78,75,16,10.2,cv,10-12-2020
205,new norfolk,-42.78,147.06,48.0,68,80,4.0,au,10-12-2020
206,cabo san lucas,22.89,-109.91,82.99,83,90,5.5,mx,10-12-2020
207,punta arenas,-53.15,-70.92,44.6,87,90,9.17,cl,10-12-2020
208,new norfolk,-42.78,147.06,48.0,68,80,4.0,au,10-12-2020
209,kamenka,51.32,42.77,58.41,61,50,9.48,ru,10-12-2020
210,geraldton,-28.77,114.6,64.4,88,0,8.05,au,10-12-2020
211,half moon bay,37.46,-122.43,75.2,47,1,8.05,us,10-12-2020
213,vestmannaeyjar,63.44,-20.27,44.6,87,20,11.41,is,10-12-2020
214,rikitea,-23.12,-134.97,74.35,75,32,16.28,pf,10-12-2020
215,mount gambier,-37.83,140.77,53.6,87,90,10.29,au,10-12-2020
216,college,64.86,-147.8,26.6,53,75,8.05,us,10-12-2020
217,pelym,61.01,62.0,44.82,88,100,4.09,ru,10-12-2020
218,rikitea,-23.12,-134.97,74.35,75,32,16.28,pf,10-12-2020
219,mogadishu,2.04,45.34,79.43,80,24,12.68,so,10-12-2020
220,gorontalo,0.54,123.06,76.77,85,60,2.08,id,10-12-2020
221,ilek,51.53,53.38,51.89,40,72,7.16,ru,10-12-2020
222,mataura,-46.19,168.86,37.33,95,29,1.01,pf,10-12-2020
223,ketchikan,55.34,-131.65,46.4,100,90,3.36,us,10-12-2020
224,isangel,-19.55,169.27,75.56,82,20,14.0,vu,10-12-2020
225,tasiilaq,65.61,-37.64,35.6,93,100,5.82,gl,10-12-2020
226,riyadh,24.69,46.72,77.0,17,0,4.7,sa,10-12-2020
227,fairbanks,64.84,-147.72,26.6,58,90,6.93,us,10-12-2020
228,arraial do cabo,-22.97,-42.03,77.0,65,40,26.4,br,10-12-2020
229,barrow,71.29,-156.79,24.8,79,90,7.72,us,10-12-2020
230,pisco,-13.7,-76.22,68.0,72,2,8.05,pe,10-12-2020
231,rikitea,-23.12,-134.97,74.35,75,32,16.28,pf,10-12-2020
232,aksarka,66.56,67.8,35.69,84,56,5.28,ru,10-12-2020
234,nizhniy baskunchak,48.22,46.83,54.97,51,0,13.0,ru,10-12-2020
235,buin,-33.73,-70.75,84.99,20,0,3.36,pg,10-12-2020
237,rikitea,-23.12,-134.97,74.35,75,32,16.28,pf,10-12-2020
238,vaini,-21.2,-175.2,71.6,73,75,10.29,to,10-12-2020
240,brae,60.4,-1.35,48.2,87,75,21.92,gb,10-12-2020
241,bada,51.39,109.87,18.68,94,29,5.26,ru,10-12-2020
242,klaksvik,62.23,-6.59,44.6,93,77,9.17,fo,10-12-2020
243,punta arenas,-53.15,-70.92,44.6,87,90,9.17,cl,10-12-2020
244,ahipara,-35.17,173.17,60.33,95,100,8.57,nz,10-12-2020
245,chuy,-33.7,-53.46,60.89,75,97,8.84,uy,10-12-2020
246,tura,25.52,90.22,74.32,92,1,2.44,ru,10-12-2020
247,bluff,-46.6,168.33,44.55,80,40,7.07,nz,10-12-2020
248,jiayuguan,39.82,98.3,39.51,53,30,3.87,cn,10-12-2020
249,butaritari,3.07,172.79,81.79,74,35,17.22,ki,10-12-2020
250,dikson,73.51,80.55,33.15,86,100,18.19,ru,10-12-2020
251,dikson,73.51,80.55,33.15,86,100,18.19,ru,10-12-2020
252,mahebourg,-20.41,57.7,71.6,88,40,9.17,mu,10-12-2020
254,bluff,-46.6,168.33,44.55,80,40,7.07,nz,10-12-2020
255,cape town,-33.93,18.42,64.0,72,82,4.7,za,10-12-2020
256,barrow,71.29,-156.79,24.8,79,90,7.72,us,10-12-2020
258,severo-kurilsk,50.68,156.12,45.55,79,82,13.0,ru,10-12-2020
259,kapaa,22.08,-159.32,77.0,94,75,6.93,us,10-12-2020
260,vaini,-21.2,-175.2,71.6,73,75,10.29,to,10-12-2020
261,ketchikan,55.34,-131.65,46.4,100,90,3.36,us,10-12-2020
263,sungairaya,0.7,108.9,77.25,87,100,5.23,id,10-12-2020
264,punta arenas,-53.15,-70.92,44.6,87,90,9.17,cl,10-12-2020
265,soledade,-28.82,-52.51,74.84,55,0,9.51,br,10-12-2020
268,cape town,-33.93,18.42,64.0,72,82,4.7,za,10-12-2020
269,plettenberg bay,-34.05,23.37,62.46,59,81,2.15,za,10-12-2020
270,zima,53.92,102.04,23.76,85,0,3.58,ru,10-12-2020
271,upernavik,72.79,-56.15,31.87,96,22,9.93,gl,10-12-2020
272,mataura,-46.19,168.86,37.33,95,29,1.01,pf,10-12-2020
273,namibe,-15.2,12.15,65.73,79,39,7.9,ao,10-12-2020
274,ushuaia,-54.8,-68.3,44.6,70,75,16.11,ar,10-12-2020
275,bredasdorp,-34.53,20.04,59.0,62,90,11.41,za,10-12-2020
276,oussouye,12.48,-16.55,82.4,88,20,6.89,sn,10-12-2020
277,hithadhoo,-0.6,73.08,82.38,70,85,10.6,mv,10-12-2020
278,new norfolk,-42.78,147.06,48.0,68,80,4.0,au,10-12-2020
279,esperance,-33.87,121.9,50.0,100,0,10.29,au,10-12-2020
280,albany,42.6,-73.97,57.0,51,88,1.99,au,10-12-2020
281,ancud,-41.87,-73.82,57.2,58,40,3.36,cl,10-12-2020
282,iqaluit,63.75,-68.51,30.2,74,40,20.8,ca,10-12-2020
283,ust-kuyga,70.02,135.6,9.46,93,0,2.04,ru,10-12-2020
284,green river,41.53,-109.47,53.6,27,1,39.15,us,10-12-2020
285,bredasdorp,-34.53,20.04,59.0,62,90,11.41,za,10-12-2020
286,temirtau,50.05,72.95,44.6,75,5,4.47,kz,10-12-2020
288,tigil,57.8,158.67,32.27,87,75,4.68,ru,10-12-2020
289,levelland,33.59,-102.38,71.01,16,20,8.05,us,10-12-2020
290,cervo,43.67,-7.41,63.0,1,99,11.23,es,10-12-2020
291,khatanga,71.97,102.5,26.38,97,99,13.11,ru,10-12-2020
292,egvekinot,66.32,-179.17,22.14,96,66,9.64,ru,10-12-2020
293,vaini,-21.2,-175.2,71.6,73,75,10.29,to,10-12-2020
294,cauquenes,-35.97,-72.32,74.16,36,0,9.57,cl,10-12-2020
295,ermelo,-26.53,29.98,52.27,79,39,5.48,za,10-12-2020
296,salinopolis,-0.61,-47.36,85.57,62,14,12.62,br,10-12-2020
297,punta arenas,-53.15,-70.92,44.6,87,90,9.17,cl,10-12-2020
298,lebu,-37.62,-73.65,54.27,72,0,19.15,cl,10-12-2020
299,jamestown,42.1,-79.24,62.01,82,90,16.11,sh,10-12-2020
300,butaritari,3.07,172.79,81.79,74,35,17.22,ki,10-12-2020
301,wewak,-3.55,143.63,79.84,85,84,8.21,pg,10-12-2020
302,kapaa,22.08,-159.32,77.0,94,75,6.93,us,10-12-2020
303,aklavik,68.22,-135.01,23.0,79,75,6.93,ca,10-12-2020
304,bredasdorp,-34.53,20.04,59.0,62,90,11.41,za,10-12-2020
305,campana,-34.17,-58.96,73.0,43,11,14.99,ar,10-12-2020
306,rikitea,-23.12,-134.97,74.35,75,32,16.28,pf,10-12-2020
308,manama,26.22,50.58,86.0,40,0,5.82,bh,10-12-2020
309,vyartsilya,62.18,30.69,43.81,95,100,3.2,ru,10-12-2020
310,barrow,71.29,-156.79,24.8,79,90,7.72,us,10-12-2020
311,bathsheba,13.22,-59.52,87.8,70,20,13.87,bb,10-12-2020
312,yellowknife,62.46,-114.35,34.0,80,90,19.46,ca,10-12-2020
313,huarmey,-10.07,-78.15,69.67,66,47,11.16,pe,10-12-2020
314,hamirpur,25.95,80.15,81.88,48,0,6.89,in,10-12-2020
315,saint anthony,45.02,-93.22,62.01,36,1,12.75,ca,10-12-2020
316,port lincoln,-34.73,135.87,57.31,93,14,7.4,au,10-12-2020
317,prince rupert,54.32,-130.32,46.4,93,90,3.36,ca,10-12-2020
318,ushuaia,-54.8,-68.3,44.6,70,75,16.11,ar,10-12-2020
319,tam ky,15.57,108.48,75.2,100,75,1.12,vn,10-12-2020
320,fortuna,40.6,-124.16,70.0,68,20,3.36,us,10-12-2020
321,launceston,-41.45,147.17,48.0,93,40,6.93,au,10-12-2020
322,dingle,11.0,122.67,76.26,85,100,3.06,ie,10-12-2020
323,russkaya polyana,49.42,31.92,59.95,69,93,6.98,ru,10-12-2020
324,bluff,-46.6,168.33,44.55,80,40,7.07,nz,10-12-2020
325,kathu,7.92,98.33,79.0,88,75,19.46,th,10-12-2020
326,lorengau,-2.02,147.27,81.5,78,97,5.84,pg,10-12-2020
327,butaritari,3.07,172.79,81.79,74,35,17.22,ki,10-12-2020
328,chokurdakh,70.63,147.92,16.81,98,96,3.0,ru,10-12-2020
329,bundaberg,-24.85,152.35,63.0,82,1,5.82,au,10-12-2020
330,jamestown,42.1,-79.24,62.01,82,90,16.11,sh,10-12-2020
331,hilo,19.73,-155.09,73.99,64,90,6.93,us,10-12-2020
332,ushuaia,-54.8,-68.3,44.6,70,75,16.11,ar,10-12-2020
333,bredasdorp,-34.53,20.04,59.0,62,90,11.41,za,10-12-2020
334,richards bay,-28.78,32.04,62.58,77,63,10.27,za,10-12-2020
335,hovd,48.01,91.64,33.94,81,94,1.3,mn,10-12-2020
336,port elizabeth,-33.92,25.57,59.0,87,44,2.24,za,10-12-2020
337,chuy,-33.7,-53.46,60.89,75,97,8.84,uy,10-12-2020
338,saint-philippe,-21.36,55.77,72.0,78,12,5.82,re,10-12-2020
339,cap malheureux,-19.98,57.61,73.99,78,24,5.99,mu,10-12-2020
340,saskylakh,71.92,114.08,16.52,96,96,8.23,ru,10-12-2020
341,tasiilaq,65.61,-37.64,35.6,93,100,5.82,gl,10-12-2020
342,carnarvon,-24.87,113.63,68.0,88,90,17.22,au,10-12-2020
344,ushuaia,-54.8,-68.3,44.6,70,75,16.11,ar,10-12-2020
346,cam ranh,11.92,109.16,80.6,88,75,2.24,vn,10-12-2020
347,belyy yar,53.6,91.39,37.4,93,100,2.24,ru,10-12-2020
348,mataura,-46.19,168.86,37.33,95,29,1.01,pf,10-12-2020
349,atar,20.52,-13.05,78.8,83,40,13.87,mr,10-12-2020
350,marrakesh,31.63,-8.01,89.6,17,0,5.82,ma,10-12-2020
351,wawa,9.9,4.42,81.5,66,54,0.85,ca,10-12-2020
352,kapaa,22.08,-159.32,77.0,94,75,6.93,us,10-12-2020
353,puerto escondido,15.85,-97.07,84.2,70,5,6.93,mx,10-12-2020
354,new norfolk,-42.78,147.06,48.0,68,80,4.0,au,10-12-2020
355,san policarpo,12.18,125.51,81.32,82,96,6.69,ph,10-12-2020
356,paamiut,61.99,-49.67,41.22,86,100,32.03,gl,10-12-2020
357,barrow,71.29,-156.79,24.8,79,90,7.72,us,10-12-2020
358,barrow,71.29,-156.79,24.8,79,90,7.72,us,10-12-2020
359,hithadhoo,-0.6,73.08,82.38,70,85,10.6,mv,10-12-2020
360,syracuse,37.09,15.28,62.01,72,20,4.7,it,10-12-2020
361,albany,42.6,-73.97,57.0,51,88,1.99,au,10-12-2020
362,busselton,-33.65,115.33,59.0,60,52,9.84,au,10-12-2020
363,pochutla,15.74,-96.47,93.0,49,5,5.08,mx,10-12-2020
365,naze,28.37,129.48,77.0,69,90,11.41,jp,10-12-2020
366,padang,-0.95,100.35,78.44,77,97,3.85,id,10-12-2020
368,jamestown,42.1,-79.24,62.01,82,90,16.11,sh,10-12-2020
369,hobart,-42.88,147.33,50.0,66,75,14.99,au,10-12-2020
370,mataura,-46.19,168.86,37.33,95,29,1.01,pf,10-12-2020
371,saint-philippe,-21.36,55.77,72.0,78,12,5.82,re,10-12-2020
372,ushuaia,-54.8,-68.3,44.6,70,75,16.11,ar,10-12-2020
373,hami,42.8,93.45,46.81,49,79,9.46,cn,10-12-2020
374,te anau,-45.42,167.72,41.63,90,66,1.48,nz,10-12-2020
375,qaanaaq,77.48,-69.36,35.11,86,100,5.39,gl,10-12-2020
376,kremenchuk,49.1,33.42,62.06,61,85,6.53,ua,10-12-2020
377,port hedland,-20.32,118.57,73.4,64,0,5.82,au,10-12-2020
378,port lincoln,-34.73,135.87,57.31,93,14,7.4,au,10-12-2020
379,chernyshevskiy,63.01,112.47,22.23,96,95,8.1,ru,10-12-2020
380,jixi,45.3,130.97,34.34,81,0,5.01,cn,10-12-2020
381,butaritari,3.07,172.79,81.79,74,35,17.22,ki,10-12-2020
382,rikitea,-23.12,-134.97,74.35,75,32,16.28,pf,10-12-2020
383,ko samui,9.54,99.94,80.22,83,99,17.18,th,10-12-2020
384,thompson,55.74,-97.86,41.0,75,75,14.99,ca,10-12-2020
385,atuona,-9.8,-139.03,78.28,75,42,16.26,pf,10-12-2020
386,ushuaia,-54.8,-68.3,44.6,70,75,16.11,ar,10-12-2020
387,butaritari,3.07,172.79,81.79,74,35,17.22,ki,10-12-2020
388,victoria,22.29,114.16,78.01,90,97,1.01,sc,10-12-2020
389,kapaa,22.08,-159.32,77.0,94,75,6.93,us,10-12-2020
390,hami,42.8,93.45,46.81,49,79,9.46,cn,10-12-2020
391,bethel,41.37,-73.41,52.0,76,90,16.11,us,10-12-2020
392,keskin,39.67,33.61,69.01,33,30,1.01,tr,10-12-2020
393,jining,35.41,116.58,60.01,57,87,4.32,cn,10-12-2020
395,vaini,-21.2,-175.2,71.6,73,75,10.29,to,10-12-2020
396,bethel,41.37,-73.41,52.0,76,90,16.11,us,10-12-2020
397,port blair,11.67,92.75,79.75,85,100,13.22,in,10-12-2020
398,dikson,73.51,80.55,33.15,86,100,18.19,ru,10-12-2020
399,mataura,-46.19,168.86,37.33,95,29,1.01,pf,10-12-2020
400,anadyr,64.75,177.48,19.4,92,37,11.18,ru,10-12-2020
401,hermanus,-34.42,19.23,59.0,87,80,1.99,za,10-12-2020
402,ponta do sol,32.67,-17.1,72.0,68,20,16.11,cv,10-12-2020
403,airai,-8.93,125.41,59.36,91,45,3.13,pw,10-12-2020
404,daru,-9.08,143.21,78.91,85,100,15.08,pg,10-12-2020
405,cape town,-33.93,18.42,64.0,72,82,4.7,za,10-12-2020
407,lavrentiya,65.58,-171.0,31.53,92,100,14.27,ru,10-12-2020
408,shache,38.42,77.24,47.12,48,100,2.89,cn,10-12-2020
409,harper,4.38,-7.72,77.11,88,100,7.94,lr,10-12-2020
410,vila do maio,15.13,-23.22,82.4,65,75,10.29,cv,10-12-2020
411,punta arenas,-53.15,-70.92,44.6,87,90,9.17,cl,10-12-2020
412,santa isabel,-23.32,-46.22,82.4,44,7,3.36,mx,10-12-2020
413,rikitea,-23.12,-134.97,74.35,75,32,16.28,pf,10-12-2020
414,hobart,-42.88,147.33,50.0,66,75,14.99,au,10-12-2020
415,torbay,47.67,-52.73,50.0,57,20,21.92,ca,10-12-2020
416,winslow,35.02,-110.7,69.8,15,1,4.7,us,10-12-2020
417,morada nova,-5.11,-38.37,100.71,17,2,8.79,br,10-12-2020
419,santa isabel,-23.32,-46.22,82.4,44,7,3.36,us,10-12-2020
420,avera,33.19,-82.53,78.8,83,90,9.17,pf,10-12-2020
421,hermanus,-34.42,19.23,59.0,87,80,1.99,za,10-12-2020
422,arraial do cabo,-22.97,-42.03,77.0,65,40,26.4,br,10-12-2020
423,hermanus,-34.42,19.23,59.0,87,80,1.99,za,10-12-2020
424,qaanaaq,77.48,-69.36,35.11,86,100,5.39,gl,10-12-2020
425,saint-philippe,-21.36,55.77,72.0,78,12,5.82,re,10-12-2020
426,ponta do sol,32.67,-17.1,72.0,68,20,16.11,pt,10-12-2020
427,punta arenas,-53.15,-70.92,44.6,87,90,9.17,cl,10-12-2020
429,torbay,47.67,-52.73,50.0,57,20,21.92,ca,10-12-2020
430,rikitea,-23.12,-134.97,74.35,75,32,16.28,pf,10-12-2020
434,mahebourg,-20.41,57.7,71.6,88,40,9.17,mu,10-12-2020
435,pacific grove,36.62,-121.92,78.8,31,1,5.82,us,10-12-2020
436,ilulissat,69.22,-51.1,33.8,74,75,2.24,gl,10-12-2020
438,benguela,-12.58,13.41,74.19,77,81,7.34,ao,10-12-2020
439,pevek,69.7,170.31,25.32,95,99,11.63,ru,10-12-2020
440,rikitea,-23.12,-134.97,74.35,75,32,16.28,pf,10-12-2020
441,leningradskiy,69.38,178.42,20.88,91,0,5.84,ru,10-12-2020
442,port alfred,-33.59,26.89,62.17,75,30,16.8,za,10-12-2020
443,bathsheba,13.22,-59.52,87.8,70,20,13.87,bb,10-12-2020
444,punta arenas,-53.15,-70.92,44.6,87,90,9.17,cl,10-12-2020
445,busselton,-33.65,115.33,59.0,60,52,9.84,au,10-12-2020
446,lavrentiya,65.58,-171.0,31.53,92,100,14.27,ru,10-12-2020
447,georgetown,5.41,100.34,77.0,88,40,3.36,sh,10-12-2020
448,albany,42.6,-73.97,57.0,51,88,1.99,au,10-12-2020
449,eirunepe,-6.66,-69.87,98.2,30,28,4.14,br,10-12-2020
451,kargopol,61.51,38.95,48.6,93,100,6.35,ru,10-12-2020
452,llangefni,53.26,-4.31,54.0,81,69,10.29,gb,10-12-2020
453,mana,5.66,-53.78,87.19,62,19,10.74,gf,10-12-2020
454,lebu,-37.62,-73.65,54.27,72,0,19.15,cl,10-12-2020
455,punta arenas,-53.15,-70.92,44.6,87,90,9.17,cl,10-12-2020
456,tezu,27.92,96.17,76.77,61,0,3.33,in,10-12-2020
458,hermanus,-34.42,19.23,59.0,87,80,1.99,za,10-12-2020
459,gangoh,29.77,77.25,74.93,56,0,4.59,in,10-12-2020
460,ushuaia,-54.8,-68.3,44.6,70,75,16.11,ar,10-12-2020
461,padang,-0.95,100.35,78.44,77,97,3.85,id,10-12-2020
462,mar del plata,-38.0,-57.56,62.6,67,20,14.99,ar,10-12-2020
463,tres arroyos,-38.37,-60.28,70.09,43,0,1.72,ar,10-12-2020
464,spearfish,44.49,-103.86,59.0,28,40,20.8,us,10-12-2020
465,acajutla,13.59,-89.83,87.8,52,20,3.36,sv,10-12-2020
466,albany,42.6,-73.97,57.0,51,88,1.99,au,10-12-2020
467,labuhan,-6.88,112.21,80.89,74,79,6.17,id,10-12-2020
468,bubaque,11.28,-15.83,84.49,72,96,6.73,gw,10-12-2020
469,mahebourg,-20.41,57.7,71.6,88,40,9.17,mu,10-12-2020
470,port alfred,-33.59,26.89,62.17,75,30,16.8,za,10-12-2020
471,cayenne,4.93,-52.33,91.4,55,14,10.29,gf,10-12-2020
472,busselton,-33.65,115.33,59.0,60,52,9.84,au,10-12-2020
473,mataura,-46.19,168.86,37.33,95,29,1.01,pf,10-12-2020
474,rikitea,-23.12,-134.97,74.35,75,32,16.28,pf,10-12-2020
475,methoni,36.82,21.7,75.2,73,40,9.17,gr,10-12-2020
476,alihe,50.57,123.72,28.22,79,0,7.29,cn,10-12-2020
477,bethel,41.37,-73.41,52.0,76,90,16.11,us,10-12-2020
479,albany,42.6,-73.97,57.0,51,88,1.99,au,10-12-2020
480,constitucion,-35.33,-72.42,66.18,46,0,16.55,mx,10-12-2020
481,lebu,-37.62,-73.65,54.27,72,0,19.15,cl,10-12-2020
482,cape town,-33.93,18.42,64.0,72,82,4.7,za,10-12-2020
483,flin flon,54.77,-101.86,39.2,71,75,17.22,ca,10-12-2020
484,busselton,-33.65,115.33,59.0,60,52,9.84,au,10-12-2020
485,saskylakh,71.92,114.08,16.52,96,96,8.23,ru,10-12-2020
486,tabou,4.42,-7.35,78.24,84,75,8.86,ci,10-12-2020
487,port alfred,-33.59,26.89,62.17,75,30,16.8,za,10-12-2020
488,mar del plata,-38.0,-57.56,62.6,67,20,14.99,ar,10-12-2020
489,cabedelo,-6.98,-34.83,86.0,51,20,13.87,br,10-12-2020
490,ushuaia,-54.8,-68.3,44.6,70,75,16.11,ar,10-12-2020
492,bluff,-46.6,168.33,44.55,80,40,7.07,nz,10-12-2020
493,ushuaia,-54.8,-68.3,44.6,70,75,16.11,ar,10-12-2020
494,airai,-8.93,125.41,59.36,91,45,3.13,pw,10-12-2020
495,tuktoyaktuk,69.45,-133.04,23.0,85,75,20.8,ca,10-12-2020
496,jamestown,42.1,-79.24,62.01,82,90,16.11,sh,10-12-2020
497,east london,-33.02,27.91,62.6,77,36,11.41,za,10-12-2020
498,san patricio,28.02,-97.52,89.6,55,75,6.6,mx,10-12-2020
499,ancud,-41.87,-73.82,57.2,58,40,3.36,cl,10-12-2020
